City_ID,City,Cloudiness,Country,Date,Humidity,Lat,Lng,Max Temp,Wind Speed
0,hithadhoo,76,MV,1547424106,100,-0.6,73.08,81.01,6.78
1,east london,20,ZA,1547423503,100,-33.02,27.91,70.62,8.46
2,mataura,88,NZ,1547423725,86,-46.19,168.86,57.57,10.25
3,katima mulilo,12,NA,1547424107,91,-17.5,24.28,66.52,1.41
4,santa fe,92,AR,1547424020,97,-31.62,-60.7,73.18,5.21
5,thompson,20,CA,1547420400,72,55.74,-97.86,10.4,11.41
6,castro,0,CL,1547420400,55,-42.48,-73.76,60.8,6.93
7,abha,0,SA,1547420400,47,18.22,42.5,57.2,6.93
8,lorengau,88,PG,1547424109,96,-2.02,147.27,84.43,15.17
9,cape town,20,ZA,1547420400,82,-33.93,18.42,60.8,4.7
10,kamenka,76,RU,1547423768,91,53.19,44.05,18.6,9.69
11,punta arenas,40,CL,1547420400,50,-53.16,-70.91,53.6,27.51
12,ustka,92,PL,1547423950,94,54.58,16.86,41.37,23.11
13,new norfolk,0,AU,1547422200,46,-42.78,147.06,71.6,10.29
14,saint anthony,1,US,1547420160,56,43.97,-111.68,24.08,3.36
15,bastia,75,IT,1547423400,71,44.6,8.98,53.6,9.17
16,farmington,90,US,1547420580,85,36.73,-108.21,37.04,6.93
17,ushuaia,75,AR,1547420400,61,-54.81,-68.31,48.2,31.09
18,coquimbo,0,CL,1547420400,63,-29.95,-71.34,66.2,9.17
19,bathsheba,20,BB,1547420400,61,13.22,-59.52,77.0,8.05
20,lompoc,90,US,1547422500,62,34.64,-120.46,59.0,8.05
21,bingol,56,TR,1547423887,82,38.88,40.49,18.46,2.75
22,kruisfontein,32,ZA,1547424113,92,-34.0,24.73,66.03,8.01
23,skjervoy,64,NO,1547424113,100,70.03,20.97,27.6,2.19
24,georgetown,40,GY,1547420400,74,6.8,-58.16,80.6,11.41
25,chokurdakh,20,RU,1547423749,43,70.62,147.9,-27.17,2.75
26,rikitea,92,PF,1547423725,100,-23.12,-134.97,79.66,12.37
27,guerrero negro,12,MX,1547423791,71,27.97,-114.04,65.17,4.88
28,flinders,20,AU,1547422140,69,-34.58,150.85,77.0,5.82
29,maun,64,BW,1547424115,78,-19.99,23.42,73.0,2.98
30,atuona,88,PF,1547423716,100,-9.8,-139.03,81.19,15.84
31,kahului,40,US,1547420760,52,20.89,-156.47,80.96,6.93
32,huilong,92,CN,1547424116,94,28.89,110.18,35.83,2.53
33,qaanaaq,0,GL,1547423740,100,77.48,-69.36,-25.73,9.91
34,port alfred,20,ZA,1547423644,95,-33.59,26.89,67.06,7.67
35,busselton,0,AU,1547423717,100,-33.64,115.35,62.65,17.4
36,imeni poliny osipenko,20,RU,1547424104,64,52.42,136.49,-21.95,2.98
37,dikson,68,RU,1547423512,91,73.51,80.55,1.18,30.94
38,yinchuan,36,CN,1547424117,58,38.48,106.21,3.03,2.3
39,ucluelet,5,CA,1547420400,81,48.94,-125.55,50.0,9.17
40,xuddur,0,SO,1547424118,69,4.12,43.89,67.38,8.01
41,iqaluit,90,CA,1547420400,84,63.75,-68.52,-2.21,11.41
42,saskylakh,0,RU,1547423810,0,71.97,114.09,-56.33,8.23
43,codrington,90,AU,1547420400,57,-28.95,153.24,80.6,8.05
44,alvares machado,20,BR,1547420400,54,-22.08,-51.47,82.4,6.93
45,chuy,92,UY,1547424119,99,-33.69,-53.46,71.07,14.05
46,kapaa,20,US,1547420160,58,22.08,-159.32,80.06,9.17
47,sitka,12,US,1547423760,85,37.17,-99.65,29.89,2.75
48,khatanga,32,RU,1547423740,52,71.98,102.47,-30.95,8.68
49,nome,1,US,1547422500,53,30.04,-94.42,55.94,8.05
50,albany,20,US,1547421420,55,42.65,-73.75,17.06,8.05
51,kiunga,92,PG,1547424121,100,-6.12,141.3,73.99,1.63
52,tuktoyaktuk,40,CA,1547420400,74,69.44,-133.03,-25.61,19.46
53,huanuni,44,BO,1547424121,80,-18.29,-66.83,48.16,2.42
54,jamestown,0,AU,1547423717,63,-33.21,138.6,82.99,4.76
55,oni,44,GE,1547424122,87,42.59,43.44,16.98,2.42
56,mayahi,0,NE,1547424122,36,13.95,7.67,60.76,13.15
57,cabo san lucas,5,MX,1547419560,64,22.89,-109.91,78.8,4.7
58,creel,0,MX,1547424123,45,27.75,-107.63,48.93,4.88
59,lishu,0,CN,1547424123,61,43.31,124.32,1.18,2.98
60,broken hill,12,AU,1547420400,13,-31.97,141.45,93.2,5.82
61,progreso,90,UY,1547420400,94,-34.68,-56.22,71.6,8.05
62,belaya gora,64,RU,1547423846,64,68.54,146.19,-21.5,10.58
63,maragogi,76,BR,1547424058,98,-9.01,-35.22,75.88,5.44
64,severo-kurilsk,64,RU,1547423722,100,50.68,156.12,30.16,6.78
65,lavrentiya,92,RU,1547424125,100,65.58,-170.99,-2.29,31.27
66,cuiluan,68,CN,1547424125,76,47.72,128.65,4.47,4.21
67,nikolskoye,90,RU,1547422200,92,59.7,30.79,26.6,8.95
68,ponta do sol,20,BR,1547423781,86,-20.63,-46.0,72.33,1.86
69,soria,0,ES,1547424126,73,41.76,-2.46,21.57,2.42
70,pangnirtung,64,CA,1547424126,57,66.15,-65.72,-19.84,4.09
71,garden city,75,US,1547423580,48,40.73,-73.63,32.0,12.75
72,hilo,90,US,1547419980,56,19.71,-155.08,78.98,14.99
73,saint-georges,0,CA,1547423732,74,46.12,-70.67,-3.14,3.65
74,hermanus,44,ZA,1547423725,97,-34.42,19.24,52.75,2.64
75,rincon,90,US,1547422500,94,32.3,-81.24,51.8,5.82
76,biryusinsk,0,RU,1547424128,49,55.96,97.82,-17.14,2.64
77,rimouski,75,CA,1547420400,66,48.45,-68.52,12.2,11.41
78,komsomolskiy,56,RU,1547424129,76,67.55,63.78,4.51,12.03
79,tasiilaq,88,GL,1547419800,92,65.61,-37.64,15.8,5.82
80,cockburn town,0,TC,1547423510,100,21.46,-71.14,78.58,16.28
81,laguna,5,MX,1547419260,22,27.52,-110.01,78.8,6.93
82,hasaki,20,JP,1547422200,74,35.73,140.83,37.4,6.93
83,dingle,36,PH,1547424130,78,11.0,122.67,77.55,16.28
84,carnarvon,0,ZA,1547423731,51,-30.97,22.13,56.22,6.67
85,tuatapere,44,NZ,1547423815,100,-46.13,167.69,54.87,8.9
86,lamu,12,ID,1547423828,99,0.57,122.3,75.88,2.75
87,dharan,0,NP,1547423855,60,26.81,87.28,46.99,2.64
88,hobart,0,AU,1547422200,46,-42.88,147.33,71.6,10.29
89,san patricio,12,PY,1547424132,86,-26.98,-56.83,80.74,2.53
90,kulaman,12,PH,1547424132,87,6.46,124.09,75.48,2.19
91,pathanamthitta,0,IN,1547424133,86,9.27,76.79,71.38,4.21
92,arraial do cabo,0,BR,1547423733,84,-22.97,-42.02,77.41,16.28
93,vila franca do campo,40,PT,1547420400,72,37.72,-25.43,59.0,8.05
94,nijar,0,ES,1547422200,87,36.97,-2.21,46.4,4.7
95,narsaq,32,GL,1547419800,68,60.91,-46.05,26.6,4.7
96,asmara,0,ER,1547424134,75,15.34,38.93,47.58,1.74
97,mount gambier,0,AU,1547420400,68,-37.83,140.78,71.6,9.17
98,lasa,20,CY,1547422200,87,34.92,32.53,48.2,4.7
99,quatre cocos,40,MU,1547420400,74,-20.21,57.76,78.8,6.93
100,grindavik,75,IS,1547422200,74,63.84,-22.43,30.2,10.29
101,nelspruit,92,ZA,1547420400,83,-25.48,30.98,75.2,4.99
102,tiksi,0,RU,1547423745,0,71.64,128.87,-38.42,2.42
103,lagoa,0,PT,1547420400,75,37.14,-8.45,46.4,5.82
104,padang,20,ID,1547420400,100,-0.92,100.36,73.4,2.24
105,laramie,1,US,1547420280,58,41.31,-105.59,39.92,3.36
106,norman wells,75,CA,1547420400,69,65.28,-126.83,-13.01,17.22
107,victoria,75,BN,1547422200,94,5.28,115.24,78.8,1.12
108,yellowknife,40,CA,1547420400,74,62.45,-114.38,-25.61,4.7
109,provideniya,0,RU,1547422200,64,64.42,-173.23,1.4,15.66
110,imbituba,75,BR,1547422620,88,-28.24,-48.67,78.8,3.36
111,bluff,0,AU,1547424139,46,-23.58,149.07,84.61,13.27
112,kavaratti,0,IN,1547423754,100,10.57,72.64,81.64,14.5
113,deputatskiy,48,RU,1547424139,44,69.3,139.9,-28.79,3.2
114,newcastle,32,ZA,1547424053,92,-27.76,29.92,61.39,2.98
115,camacha,40,PT,1547420400,77,33.08,-16.33,64.4,17.22
116,ostrovnoy,76,RU,1547424140,92,68.05,39.51,18.73,10.25
117,bredasdorp,48,ZA,1547420400,72,-34.53,20.04,66.2,2.24
118,pevek,0,RU,1547423758,100,69.7,170.27,-31.09,2.64
119,muisne,75,EC,1547420400,88,0.61,-80.02,77.0,4.7
120,oyama,20,JP,1547420400,79,36.31,139.8,28.4,3.36
121,souillac,90,FR,1547422200,93,45.6,-0.6,50.0,13.87
122,sulangan,8,PH,1547424142,99,11.14,123.72,80.07,20.54
123,luganville,0,VU,1547424143,99,-15.51,167.18,83.22,2.19
124,puerto ayora,90,EC,1547420400,88,-0.74,-90.35,75.2,16.11
125,karwar,0,IN,1547424143,77,14.8,74.13,62.88,1.97
126,port elizabeth,90,US,1547423640,68,39.31,-74.98,32.0,12.75
127,buta,64,CD,1547424144,80,2.79,24.73,77.1,2.19
128,gweru,24,ZW,1547424145,83,-19.46,29.82,68.28,4.76
129,college,1,US,1547420280,76,64.86,-147.8,-5.08,2.98
130,tumsar,0,IN,1547424145,88,21.38,79.75,63.19,9.57
131,san joaquin,36,PH,1547424145,78,10.59,122.14,77.55,16.28
132,nanortalik,80,GL,1547424146,100,60.14,-45.24,26.97,19.53
133,chirkey,20,RU,1547422200,91,42.96,46.98,35.6,4.47
134,takab,92,IR,1547424124,89,36.4,47.11,33.45,4.99
135,panzhihua,0,CN,1547424147,69,26.59,101.72,33.9,2.42
136,vanimo,80,PG,1547424147,100,-2.67,141.3,82.0,16.51
137,san carlos de bariloche,0,AR,1547420400,13,-41.13,-71.31,75.2,9.17
138,sumenep,68,ID,1547424147,100,-7.02,113.87,81.55,11.03
139,longyearbyen,40,NO,1547419800,61,78.22,15.63,14.0,18.34
140,kyzyl-suu,0,KG,1547424148,100,42.34,78.0,5.86,3.31
141,zhenlai,24,CN,1547424148,62,45.84,123.2,4.06,7.56
142,barrow,92,AR,1547423741,97,-38.31,-60.23,65.17,9.24
143,butaritari,76,KI,1547424149,100,3.07,172.79,83.13,15.05
144,esperance,20,TT,1547420400,73,10.24,-61.45,77.0,4.7
145,bijie,92,CN,1547423882,97,27.3,105.3,35.83,3.53
146,high prairie,0,CA,1547424150,89,55.43,-116.48,24.94,2.53
147,lubango,32,AO,1547423989,79,-14.92,13.49,53.83,1.97
148,luyang,90,CN,1547420400,93,31.88,117.26,35.6,6.71
149,wynyard,80,CA,1547423777,95,51.77,-104.18,20.17,6.22
150,khabary,8,RU,1547424151,72,53.63,79.53,1.23,10.47
151,baykit,88,RU,1547424151,51,61.68,96.39,-18.26,6.78
152,celestun,0,MX,1547424151,95,20.87,-90.4,75.34,18.07
153,nabire,0,ID,1547424152,87,-3.36,135.5,76.24,1.86
154,magdagachi,64,RU,1547424153,86,53.45,125.8,-6.65,2.53
155,okha,0,RU,1547424091,80,53.59,142.95,-0.94,7.0
156,navirai,56,BR,1547424153,92,-23.07,-54.19,74.44,1.63
157,vao,88,EE,1547424153,94,59.1,26.19,27.78,8.23
158,swift current,1,CA,1547420400,55,50.29,-107.8,37.4,6.93
159,hovd,75,NO,1547421600,92,63.83,10.7,33.8,25.28
160,luderitz,0,NA,1547423756,86,-26.65,15.16,62.38,14.83
161,itaquyry,32,PY,1547424155,97,-24.93,-55.22,75.52,1.74
162,mahibadhoo,68,MV,1547423867,100,3.78,72.97,80.88,16.06
163,pisco,0,PE,1547420400,30,-13.71,-76.2,71.6,24.16
164,bagdarin,0,RU,1547424156,39,54.44,113.59,-15.2,7.45
165,kiruna,56,SE,1547421600,92,67.86,20.23,6.8,2.53
166,hofn,80,IS,1547423514,100,64.25,-15.21,26.83,3.76
167,mahebourg,40,MU,1547420400,74,-20.41,57.7,78.8,6.93
168,saint-augustin,75,FR,1547422200,93,44.83,-0.61,50.0,9.17
169,avarua,40,CK,1547420400,70,-21.21,-159.78,84.2,6.93
170,beausejour,90,CA,1547422980,79,50.06,-96.51,19.4,4.7
171,bambous virieux,40,MU,1547420400,74,-20.34,57.76,78.8,6.93
172,naze,20,NG,1547420400,88,5.43,7.07,80.6,2.24
173,chumikan,0,RU,1547424158,44,54.72,135.31,-14.53,2.19
174,teahupoo,90,PF,1547422200,78,-17.83,-149.27,82.4,10.29
175,bereda,75,ES,1547422200,81,43.27,-7.54,50.0,1.12
176,pagegiai,92,LT,1547424159,100,55.14,21.91,34.39,10.58
177,black river,75,JM,1547420400,69,18.03,-77.85,80.6,6.93
178,manhattan beach,90,US,1547423580,49,33.9,-118.4,64.94,5.82
179,mar del plata,0,AR,1547423860,36,-46.43,-67.52,71.83,4.88
180,beloha,92,MG,1547424160,94,-25.17,45.06,73.0,2.64
181,barabai,76,ID,1547424160,98,-2.59,115.38,74.13,2.75
182,vaini,0,IN,1547423732,78,15.34,74.49,57.07,3.87
183,lesogorskiy,90,RU,1547423400,92,61.05,28.93,26.6,5.82
184,tiznit,0,MA,1547423965,74,29.7,-9.73,49.2,3.2
185,mikhaylovka,0,RU,1547424161,57,52.96,103.29,-20.33,2.64
186,saldanha,0,PT,1547424162,78,41.42,-6.55,22.65,2.75
187,belokurikha,0,RU,1547424162,45,52.0,84.99,-7.19,2.53
188,namibe,0,AO,1547424162,100,-15.19,12.15,71.83,7.34
189,fortuna,0,ES,1547422200,75,38.18,-1.13,44.6,8.05
190,obigarm,0,TJ,1547424163,46,38.72,69.71,-8.41,1.63
191,upernavik,36,GL,1547423721,100,72.79,-56.15,-11.29,4.65
192,poum,0,MK,1547423810,75,41.28,20.71,7.03,1.97
193,pailon,75,BO,1547420400,94,-17.66,-62.72,75.2,9.17
194,lata,0,IN,1547423816,89,30.78,78.62,24.72,2.86
195,thinadhoo,92,MV,1547424165,100,0.53,72.93,81.6,10.47
196,bikaner,0,IN,1547424081,95,28.02,73.32,47.58,7.45
197,cap malheureux,40,MU,1547420400,74,-19.98,57.61,78.8,6.93
198,puerto carreno,75,CO,1547420400,55,6.19,-67.49,86.0,4.7
199,kaitangata,92,NZ,1547423735,86,-46.28,169.85,57.43,15.05
200,gornopravdinsk,76,RU,1547424166,82,60.06,69.92,21.52,10.47
201,grand forks,90,US,1547422500,100,47.91,-97.06,24.62,5.82
202,leningradskiy,36,RU,1547424167,97,69.38,178.42,-16.33,12.03
203,acapulco,20,MX,1547419680,70,16.86,-99.88,84.2,4.7
204,saint george,40,GR,1547419800,86,39.45,22.34,32.0,2.64
205,kabo,12,CF,1547424168,45,7.69,18.62,72.15,4.65
206,kathu,0,ZA,1547423805,44,-27.7,23.05,62.43,6.11
207,bud,88,NO,1547421600,63,62.91,6.91,30.2,14.99
208,salalah,20,OM,1547419800,73,17.01,54.1,69.8,2.24
209,constitucion,5,MX,1547419620,12,23.99,-104.67,69.8,17.22
210,san cristobal,40,EC,1547420400,72,-0.39,-78.55,62.6,8.05
211,ancud,0,CL,1547420400,55,-41.87,-73.83,60.8,6.93
212,broome,56,GB,1547421600,81,52.47,1.45,44.6,17.22
213,bandarbeyla,32,SO,1547423753,100,9.49,50.81,75.43,13.27
214,mount pleasant,75,US,1547422500,68,33.16,-94.97,40.64,8.05
215,kuryk,92,KZ,1547424171,100,43.18,51.68,40.33,4.76
216,baiyin,0,CN,1547420400,71,36.55,104.13,6.8,2.24
217,meulaboh,20,ID,1547423788,100,4.14,96.13,76.92,5.88
218,aitape,48,PG,1547424172,88,-3.15,142.36,82.81,10.25
219,great falls,1,US,1547420280,23,47.5,-111.29,46.94,10.29
220,nouakchott,0,MR,1547422200,8,18.08,-15.98,68.0,6.93
221,ayan,92,TR,1547424173,97,40.67,33.6,29.8,2.08
222,faanui,80,PF,1547424173,100,-16.48,-151.75,82.05,15.61
223,havelock,90,US,1547423880,89,34.88,-76.9,48.02,17.22
224,mayo,75,CA,1547420400,77,63.59,-135.9,-2.21,2.24
225,tilichiki,0,RU,1547424174,39,60.47,166.1,-26.0,3.2
226,tzucacab,32,MX,1547424174,49,20.07,-89.05,79.98,2.98
227,boras,0,SE,1547421600,68,57.72,12.94,30.2,12.75
228,kenai,40,US,1547420160,81,60.55,-151.26,30.92,10.29
229,te anau,24,NZ,1547424175,63,-45.41,167.72,58.92,4.21
230,ostersund,0,SE,1547421600,79,63.18,14.64,21.2,20.8
231,santa catarina de tepehuanes,0,MX,1547424176,22,25.34,-105.72,58.24,6.55
232,nuuk,20,GL,1547419800,85,64.17,-51.74,12.2,6.93
233,tutoia,24,BR,1547424176,96,-2.76,-42.27,76.33,6.44
234,teguise,0,ES,1547422200,72,29.06,-13.56,59.0,8.05
235,birao,8,CF,1547424177,33,10.3,22.78,69.76,9.35
236,sur,0,OM,1547423730,100,22.57,59.53,68.1,9.24
237,aljezur,0,PT,1547424133,100,37.31,-8.8,50.5,4.88
238,livingston,90,US,1547422500,71,32.58,-88.19,46.58,9.17
239,oistins,20,BB,1547420400,61,13.07,-59.53,77.0,8.05
240,viedma,20,AR,1547423792,45,-40.81,-62.99,68.05,12.03
241,cervo,8,BR,1547424179,88,-22.19,-46.24,66.52,3.2
242,nairn,90,US,1547423460,76,29.43,-89.61,48.92,11.41
243,faya,0,SA,1547420400,47,18.39,42.45,57.2,6.93
244,vilyuysk,24,RU,1547424179,63,63.75,121.63,-21.59,6.44
245,gasa,0,BT,1547424180,79,27.91,89.73,-8.63,4.43
246,haimen,32,CN,1547424180,93,31.87,121.18,34.57,7.34
247,coahuayana,48,MX,1547423858,73,18.62,-100.35,70.21,2.08
248,klaksvik,12,FO,1547421600,74,62.23,-6.59,30.2,19.46
249,tarakan,40,ID,1547420400,94,3.3,117.63,77.0,4.76
250,sidi bin nur,40,TN,1547422200,66,35.53,10.92,55.4,13.87
251,geraldton,90,CA,1547423100,79,49.72,-86.95,28.4,13.87
252,boguchany,44,RU,1547424182,57,58.38,97.46,-19.88,3.53
253,gerash,20,IR,1547424183,86,27.67,54.14,40.15,2.19
254,phanat nikhom,12,TH,1547422200,94,13.45,101.18,78.8,1.12
255,vancouver,1,US,1547423580,47,45.63,-122.67,53.96,9.17
256,ilebo,56,CD,1547424183,91,-4.33,20.59,72.28,4.43
257,nikolayevsk-na-amure,0,RU,1547424184,79,53.14,140.72,-7.82,3.42
258,zyryanka,64,RU,1547423854,59,65.73,150.89,-20.15,6.44
259,naryan-mar,68,RU,1547424093,80,67.67,53.09,13.47,15.5
260,saint-philippe,1,CA,1547422500,88,45.36,-73.48,10.4,2.98
261,katsuura,20,JP,1547420400,96,33.93,134.5,35.6,10.29
262,namikupa,92,MZ,1547424185,98,-10.84,39.63,74.71,3.65
263,sabha,0,LY,1547424185,71,27.03,14.43,26.38,4.09
264,hualmay,24,PE,1547424186,83,-11.1,-77.61,69.85,5.99
265,cayenne,0,GF,1547422200,83,4.94,-52.33,77.0,3.36
266,cidreira,48,BR,1547423770,88,-30.17,-50.22,77.82,11.48
267,malabo,8,CD,1547424186,74,1.56,30.43,54.19,2.64
268,angoche,76,MZ,1547423806,100,-16.23,39.91,80.38,13.94
269,dicabisagan,92,PH,1547423842,100,17.08,122.42,74.22,10.36
270,trincomalee,92,LK,1547424101,100,8.58,81.23,72.19,5.99
271,aykhal,0,RU,1547423913,0,65.95,111.51,-50.39,2.75
272,guangyuan,0,CN,1547424188,78,32.43,105.86,19.68,2.19
273,mehamn,75,NO,1547419800,86,71.03,27.85,28.4,4.7
274,sumbawanga,68,TZ,1547424188,100,-7.95,31.62,69.0,8.01
275,charters towers,68,AU,1547424189,73,-20.07,146.27,79.48,12.37
276,heinola,90,FI,1547421600,92,61.2,26.03,28.4,5.82
277,sobolevo,88,RU,1547424189,93,54.43,31.9,30.97,14.5
278,kodiak,90,US,1547422500,84,39.95,-94.76,30.02,4.7
279,bossangoa,12,CF,1547424190,38,6.5,17.45,69.4,5.66
280,vostok,32,RU,1547423849,53,46.45,135.83,-5.44,2.08
281,lebu,0,ET,1547424191,63,8.96,38.73,32.14,2.86
282,alausi,92,EC,1547424191,96,-2.2,-78.83,49.92,1.19
283,kavieng,80,PG,1547424191,99,-2.57,150.8,84.75,12.03
284,hetauda,20,NP,1547419800,93,27.43,85.03,39.2,3.36
285,erenhot,68,CN,1547424192,70,43.65,111.97,4.78,11.03
286,nhulunbuy,75,AU,1547422200,70,-12.18,136.78,86.0,10.29
287,turbat,0,PK,1547424193,79,26.0,63.05,53.38,5.88
288,lumsden,75,CA,1547420400,73,50.65,-104.86,23.0,3.36
289,hvide sande,32,DK,1547421780,64,56.01,8.13,39.2,25.28
290,berezovyy,8,RU,1547424194,49,51.67,135.7,-17.36,0.96
291,kununurra,0,AU,1547422200,74,-15.77,128.74,80.6,3.36
292,sovetskiy,56,RU,1547424195,80,56.76,48.47,11.67,10.47
293,bethel,90,US,1547422860,100,60.79,-161.76,35.96,21.92
294,aklavik,40,CA,1547420400,67,68.22,-135.01,-23.81,10.29
295,nueva germania,0,PY,1547424196,70,-23.91,-56.7,83.89,2.98
296,tzaneen,0,ZA,1547420400,56,-23.83,30.16,73.4,2.19
297,eusebio,75,BR,1547420400,88,-3.89,-38.45,80.6,3.36
298,podyuga,76,RU,1547424197,90,61.09,40.86,20.8,9.13
299,gravdal,80,NO,1547421600,64,59.79,5.78,33.8,42.5
300,aasiaat,56,GL,1547424197,100,68.71,-52.87,5.73,13.49
301,caratinga,0,BR,1547420400,73,-19.79,-42.14,75.2,4.7
302,mackay,20,CA,1547420400,86,53.65,-115.58,32.0,3.36
303,alice springs,0,AU,1547422200,13,-23.7,133.88,98.6,6.93
304,the valley,20,AI,1547420400,78,18.22,-63.06,77.0,4.7
305,buenos aires,40,AR,1547420400,78,-34.61,-58.44,75.2,6.93
306,veraval,90,FR,1547422200,81,49.65,0.71,50.0,16.11
307,anadyr,0,RU,1547422200,67,64.73,177.51,-22.01,12.48
308,airai,56,TL,1547423798,78,-8.93,125.41,76.2,1.97
309,waipawa,48,NZ,1547423826,99,-39.94,176.59,63.15,4.88
310,ribeira grande,64,PT,1547424200,100,38.52,-28.7,61.57,12.15
311,itimadpur,0,IN,1547424201,93,27.25,78.2,47.58,8.01
312,cherskiy,12,RU,1547424158,50,68.75,161.3,-29.96,2.64
313,karratha,64,AU,1547423752,63,-20.74,116.85,85.96,12.71
314,biltine,8,TD,1547423836,37,14.53,20.93,62.2,5.77
315,tamandare,24,BR,1547424202,95,-8.28,-70.75,76.78,3.65
316,kualakapuas,40,ID,1547420400,100,-3.01,114.39,75.2,3.36
317,hay river,75,CA,1547420400,68,60.82,-115.79,-16.61,4.7
318,vilhena,0,BR,1547424203,92,-12.74,-60.15,71.97,2.64
319,zolotukhino,88,RU,1547424204,88,52.08,36.38,23.28,13.82
320,oliveira dos brejinhos,68,BR,1547424204,52,-12.32,-42.89,78.31,9.13
321,manicore,88,BR,1547424205,96,-5.81,-61.3,71.83,1.86
322,alofi,0,NU,1547420400,70,-19.06,-169.92,86.0,9.17
323,matsumoto,20,JP,1547422200,79,36.24,137.97,28.4,2.24
324,hambantota,44,LK,1547423865,100,6.12,81.12,78.4,15.5
325,iquique,0,CL,1547420400,60,-20.22,-70.14,73.4,19.46
326,dudinka,56,RU,1547424002,69,69.41,86.18,-9.76,27.25
327,dwarka,0,IN,1547422200,87,28.58,77.04,50.0,4.7
328,jalu,0,LY,1547423861,82,29.03,21.55,40.69,5.21
329,goch,40,DE,1547421900,75,51.68,6.16,46.4,12.75
330,necochea,76,AR,1547424207,93,-38.55,-58.74,65.8,12.82
331,grand gaube,40,MU,1547420400,74,-20.01,57.66,78.8,6.93
332,huarmey,8,PE,1547423769,73,-10.07,-78.15,70.8,4.21
333,taunsa,0,PK,1547424208,97,30.7,70.65,46.27,5.77
334,ballina,76,IE,1547424208,88,54.11,-9.15,46.0,13.94
335,baillif,40,GP,1547422200,78,16.02,-61.75,75.2,2.24
336,durban,75,FR,1547422200,81,43.54,0.58,48.2,11.41
337,igarka,76,RU,1547424209,70,67.47,86.57,-9.98,21.88
338,port lincoln,20,AU,1547423784,73,-34.72,135.86,74.8,9.69
339,hobyo,80,SO,1547424210,81,5.35,48.53,75.7,16.28
340,caxito,0,BR,1547424210,71,-22.65,-42.51,76.96,14.05
341,akhaldaba,0,GE,1547422200,55,41.68,44.66,39.2,14.99
342,kaeo,32,NZ,1547424211,94,-35.1,173.78,64.5,13.04
343,yar-sale,64,RU,1547423665,83,66.83,70.83,11.26,13.71
344,peshkovo,75,RU,1547422200,85,47.02,39.39,23.0,3.2
345,gremyachinsk,80,RU,1547424211,86,58.57,57.83,15.9,10.8
346,aksha,0,RU,1547424034,45,50.28,113.29,-8.54,15.28
347,saint-pierre,90,FR,1547422200,93,48.95,4.24,48.2,18.34
348,port hardy,75,CA,1547420400,87,50.7,-127.42,48.2,3.36
349,kastornoye,80,RU,1547424035,92,51.83,38.13,23.32,14.16
350,saint-joseph,0,FR,1547422200,93,43.56,6.97,55.4,5.82
351,hokitika,24,NZ,1547424214,88,-42.72,170.96,62.07,9.46
352,birjand,0,IR,1547420400,24,32.86,59.22,42.8,4.7
353,tabory,92,PL,1547424214,96,53.89,19.53,36.33,14.16
354,emerald,75,AU,1547420400,48,-23.53,148.16,82.4,14.99
355,santa cruz,1,US,1547421600,51,36.97,-122.03,62.96,9.17
356,psygansu,90,RU,1547420400,86,43.42,43.79,33.8,1.41
357,channel-port aux basques,32,CA,1547424216,100,47.57,-59.14,28.54,21.54
358,zambezi,92,ZM,1547424216,99,-13.55,23.12,65.13,11.7
359,khagaria,0,IN,1547424154,82,25.51,86.48,47.8,4.99
360,torbay,90,CA,1547421060,79,47.66,-52.73,24.8,18.34
361,nyimba,88,ZM,1547424217,93,-14.56,30.81,72.15,5.99
362,siguiri,32,GN,1547423791,35,11.42,-9.17,73.81,9.01
363,paita,0,PE,1547424218,60,-5.09,-81.11,78.18,10.47
364,pizarro,76,CO,1547424218,100,4.95,-77.37,77.32,1.63
365,shizilu,88,CN,1547424219,97,21.7,109.38,64.72,11.25
366,chicama,0,PE,1547420400,83,-7.84,-79.15,73.4,12.75
367,ocosingo,100,MX,1547424219,60,16.91,-92.09,68.23,2.42
368,great yarmouth,36,GB,1547421600,81,52.61,1.73,44.6,17.22
369,praya,40,ID,1547422200,88,-8.71,116.27,80.6,2.24
370,verkhnevilyuysk,24,RU,1547424220,34,63.45,120.31,-23.12,6.78
371,korhogo,0,CI,1547424220,51,9.46,-5.63,67.42,3.76
372,fukue,20,JP,1547422200,100,35.03,136.69,42.8,8.05
373,tatarsk,64,RU,1547424221,82,55.22,75.96,11.85,14.27
374,awbari,0,LY,1547424221,73,26.59,12.77,27.55,3.31
375,novoleushkovskaya,76,RU,1547424221,87,45.99,39.99,21.34,3.09
376,port hedland,0,AU,1547422200,66,-20.31,118.58,89.6,26.4
377,floro,80,NO,1547421600,100,61.6,5.03,32.0,29.97
378,vila velha,75,BR,1547420400,88,-3.71,-38.6,80.6,3.36
379,misratah,44,LY,1547424223,100,32.38,15.09,54.15,25.01
380,atikokan,92,CA,1547424223,79,48.76,-91.62,26.07,7.56
381,sakaiminato,75,JP,1547420400,100,35.55,133.23,35.6,3.36
382,mecca,92,SA,1547424112,94,21.43,39.83,70.57,1.41
383,kiama,20,AU,1547422140,69,-34.67,150.86,77.0,5.82
384,hami,80,CN,1547423866,64,42.84,93.51,10.27,5.99
385,kedrovyy,56,RU,1547422200,75,56.17,91.82,-18.41,2.24
386,sawakin,0,SD,1547420400,94,19.1,37.33,73.4,3.36
387,cap-aux-meules,90,CA,1547420400,73,47.38,-61.86,21.2,16.11
388,tamayo,20,DO,1547420400,74,18.4,-71.2,80.6,6.93
389,sioux lookout,90,CA,1547421360,92,50.1,-91.92,24.8,8.05
390,ola,76,RU,1547424226,100,59.58,151.3,8.11,7.45
391,beaupre,5,CA,1547420400,77,47.04,-70.9,5.0,11.41
392,yurecuaro,48,MX,1547424227,72,20.33,-102.3,63.64,1.86
393,bella union,32,CO,1547424227,87,8.5,-73.35,67.69,2.19
394,puerto escondido,40,MX,1547419200,66,15.86,-97.07,86.0,9.17
395,maldonado,75,UY,1547420400,88,-34.91,-54.96,71.6,13.87
396,manaure,20,CO,1547420400,69,11.78,-72.45,82.4,6.93
397,north bend,1,US,1547420160,66,43.41,-124.22,59.0,5.82
398,vincennes,90,US,1547423580,77,38.68,-87.53,35.06,9.17
399,sao filipe,48,CV,1547423748,97,14.9,-24.5,72.33,12.03
400,namatanai,48,PG,1547423782,100,-3.66,152.44,81.01,12.26
401,aksu,0,KZ,1547422200,91,52.04,76.93,-0.41,13.42
402,umm kaddadah,8,SD,1547424229,25,13.6,26.69,59.82,11.7
403,sarahan,0,IN,1547424230,100,31.51,77.79,-20.15,2.42
404,praia da vitoria,40,PT,1547420400,82,38.73,-27.07,59.0,14.61
405,bubaque,0,GW,1547423790,98,11.28,-15.83,79.98,8.01
406,aquiraz,75,BR,1547420400,88,-3.9,-38.39,80.6,3.36
407,la macarena,20,CO,1547424231,51,2.18,-73.79,82.27,2.19
408,show low,90,US,1547422500,80,34.25,-110.03,37.04,5.82
409,ocean city,90,US,1547423760,71,30.44,-86.61,51.08,4.7
410,dona ines,24,BR,1547424232,84,-6.62,-35.63,76.42,6.22
411,ibimirim,64,BR,1547424232,90,-8.54,-37.69,70.84,3.53
412,mpongwe,92,ZM,1547424232,99,-13.51,28.16,64.23,4.76
413,port blair,40,IN,1547420400,88,11.67,92.75,78.8,4.7
414,clyde river,1,CA,1547423100,66,70.47,-68.59,-31.01,6.93
415,port moresby,40,PG,1547420400,79,-9.47,147.16,84.2,11.41
416,nioro,0,GM,1547424233,36,13.79,-15.05,72.78,8.46
417,caravelas,88,BR,1547423818,100,-17.73,-39.27,79.93,14.27
418,solnechnyy,32,RU,1547424234,52,50.72,136.64,-18.08,2.53
419,pitimbu,0,BR,1547420400,83,-7.47,-34.81,78.8,8.05
420,berlevag,75,NO,1547419800,86,70.86,29.09,28.4,4.7
421,pangkalanbuun,68,ID,1547424235,100,-2.68,111.62,73.68,4.21
422,englehart,1,CA,1547420400,83,47.82,-79.87,-4.01,3.36
423,guacimo,20,CO,1547420400,74,8.09,-76.36,82.4,16.11
424,tibacuy,75,CO,1547420400,72,4.35,-74.45,59.0,8.05
425,adana,0,TR,1547421600,61,37.0,35.33,46.4,6.93
426,hohhot,0,CN,1547420400,70,40.81,111.65,1.4,4.47
427,polyarnyy,75,RU,1547422200,85,69.2,33.45,14.0,2.24
428,gorontalo,12,ID,1547424237,88,0.54,123.06,77.5,2.3
429,fatehpur,0,PK,1547424238,94,31.18,71.21,44.2,6.55
430,husavik,76,CA,1547424238,91,50.56,-96.99,15.13,4.43
431,nemuro,20,JP,1547422200,92,43.32,145.57,5.0,3.36
432,isla vista,90,US,1547422500,62,34.41,-119.86,60.08,8.05
433,kuldur,88,RU,1547423971,76,49.22,131.63,-0.98,2.53
434,kropotkin,48,RU,1547424239,100,45.43,40.58,25.39,2.98
435,ereymentau,36,KZ,1547424239,78,51.62,73.1,16.98,12.26
436,ambilobe,8,MG,1547423851,93,-13.19,49.05,68.37,2.19
437,rosario,76,UY,1547424017,98,-34.31,-57.35,70.48,3.98
438,zachepylivka,88,UA,1547424240,91,49.2,35.24,24.94,11.7
439,tual,36,ID,1547423838,100,-5.67,132.75,80.92,10.02
440,lagunillas,92,VE,1547424241,93,8.5,-71.39,59.32,0.4
441,sept-iles,20,CA,1547420400,65,50.2,-66.38,6.8,8.05
442,gunnedah,44,AU,1547422200,26,-30.98,150.25,84.2,5.82
443,buchanan,20,LR,1547422200,94,5.88,-10.05,75.2,9.91
444,ossora,8,RU,1547424242,80,59.24,163.07,-4.58,3.42
445,oranjestad,40,AW,1547420400,78,12.52,-70.03,78.8,14.99
446,pacific grove,1,US,1547423640,59,36.62,-121.92,62.96,9.01
447,narbonne,0,FR,1547422200,71,43.18,3.0,57.2,36.91
448,liverpool,75,GB,1547421600,75,53.41,-2.98,46.4,23.04
449,roma,40,IT,1547421600,87,41.89,12.48,44.6,4.7
450,vila praia de ancora,0,PT,1547422200,93,41.81,-8.85,42.8,2.24
451,whyalla,0,AU,1547420400,54,-33.04,137.58,80.6,8.05
452,touros,40,BR,1547420400,83,-5.2,-35.46,80.6,11.41
453,rorvik,40,NO,1547419800,79,64.86,11.24,28.4,4.7
454,morro bay,1,US,1547420160,59,35.37,-120.85,59.0,9.17
455,birakan,88,RU,1547423971,76,49.02,131.7,-0.98,2.53
456,palmer,0,AU,1547422200,39,-34.85,139.16,82.4,4.7
457,khani,75,GE,1547422200,83,41.96,42.96,39.2,5.82
458,portland,20,US,1547420160,42,45.52,-122.67,53.96,17.22
459,santa maria,75,BR,1547420400,88,-29.69,-53.81,75.2,11.41
460,amqui,75,CA,1547420400,66,48.47,-67.43,12.2,11.41
461,krasnyy,88,RU,1547424247,89,53.81,40.7,22.38,13.38
462,okhotsk,0,RU,1547424248,100,59.36,143.24,-12.59,8.23
463,monrovia,20,LR,1547422200,94,6.33,-10.8,75.2,7.11
464,carbonia,40,IT,1547423400,81,39.17,8.53,53.6,11.41
465,labuhan,80,ID,1547423811,97,-2.54,115.51,72.6,0.96
466,gat,12,SN,1547422200,78,14.69,-16.54,71.6,13.87
467,hun,92,BE,1547423400,87,50.34,4.87,46.4,11.41
468,taman,36,RU,1547422200,100,45.22,36.72,32.0,6.71
469,qandala,0,SO,1547424251,100,11.47,49.87,57.88,3.76
470,xichang,0,CN,1547424251,19,27.88,102.25,45.82,2.86
471,rosario do sul,56,BR,1547424251,94,-30.26,-54.91,76.15,5.88
472,manaus,40,BR,1547420400,83,-3.13,-59.98,78.8,3.36
473,santiago del estero,92,AR,1547424017,93,-27.8,-64.26,73.32,11.25
474,rio cuarto,40,AR,1547420400,69,-33.13,-64.35,75.2,13.87
475,san quintin,8,PH,1547423437,82,17.54,120.52,67.78,3.76
476,nortelandia,36,BR,1547424253,80,-14.45,-56.8,75.79,6.22
477,pampa,90,US,1547423700,86,35.54,-100.96,35.42,4.7
478,mill valley,1,US,1547423580,66,37.91,-122.55,62.06,11.41
479,boueni,40,YT,1547422200,94,-12.9,45.08,78.8,4.7
480,sychevka,80,RU,1547424078,92,55.83,34.27,25.75,14.5
481,sorland,68,NO,1547424254,100,67.67,12.69,34.12,5.88
482,nakusp,0,CA,1547424254,89,50.24,-117.8,23.86,1.74
483,goure,0,NE,1547424255,46,13.98,10.27,59.68,10.69
484,merta,0,IN,1547424255,75,26.65,74.03,51.76,10.25
485,hornepayne,92,CA,1547424255,83,49.22,-84.78,25.17,11.25
486,barcelos,0,PT,1547422200,86,41.53,-8.62,41.0,2.24
487,arinos,64,BR,1547424256,54,-15.92,-46.11,78.22,4.76
488,bilma,0,NE,1547424256,23,18.69,12.92,48.12,11.14
489,mersing,68,MY,1547424256,92,2.43,103.84,79.3,10.58
490,kozhva,92,RU,1547424017,78,65.11,57.05,15.45,9.69
491,santa ana,20,SV,1547419800,44,13.99,-89.56,80.6,11.41
492,elliot,24,ZA,1547424257,90,-31.33,27.85,49.92,2.98
493,sinnamary,100,GF,1547424257,95,5.38,-52.96,79.08,8.46
494,carutapera,68,BR,1547424258,91,-1.2,-46.02,78.58,6.44
495,lithakia,88,GR,1547421600,93,37.72,20.83,44.6,2.24
496,jijiga,0,ET,1547424258,81,9.35,42.8,38.67,2.86
497,mocuba,92,MZ,1547424258,94,-16.84,36.99,74.08,4.21
498,nawa,0,IN,1547424259,93,27.02,75.0,46.68,7.78
499,abong mbang,8,CM,1547424259,76,3.98,13.18,71.29,3.98
500,kalaleh,36,IR,1547420400,27,37.38,55.49,64.4,16.11
501,colares,0,PT,1547420400,70,38.8,-9.45,48.2,4.7
502,biloela,12,AU,1547424260,54,-24.4,150.51,81.64,11.7
503,hamilton,75,BM,1547420100,72,32.3,-64.78,64.4,11.41
504,petropavlovsk-kamchatskiy,75,RU,1547422200,77,53.05,158.65,6.8,8.95
505,yulara,0,AU,1547420400,14,-25.24,130.99,96.8,9.17
506,batagay,12,RU,1547424261,0,67.65,134.64,-56.6,2.53
507,vestmannaeyjar,48,IS,1547423794,100,63.44,-20.27,28.77,3.98
508,digapahandi,0,IN,1547424261,82,19.37,84.57,55.09,3.42
509,umiray,88,PH,1547424261,97,15.22,121.41,72.37,5.32
510,verkhoyansk,20,RU,1547424262,0,67.55,133.39,-53.18,2.64
511,northam,92,GB,1547419800,65,51.04,-4.21,46.4,9.17
512,madimba,40,CM,1547420400,94,4.42,9.93,78.8,6.78
513,santiago de las vegas,75,CU,1547420100,65,22.97,-82.39,77.0,8.05
514,atasu,24,KZ,1547423858,80,48.68,71.64,17.52,16.62
515,maceio,40,BR,1547420400,78,-9.67,-35.74,78.8,4.7
516,aldan,56,RU,1547424263,74,58.61,125.39,-12.19,2.75
517,srednekolymsk,64,RU,1547423820,37,67.46,153.71,-24.38,5.21
518,hervey bay,40,AU,1547420400,51,-25.3,152.85,84.2,19.46
519,asino,80,RU,1547424139,80,57.0,86.14,6.72,12.59
520,talnakh,76,RU,1547423809,72,69.49,88.39,-10.79,24.23
521,atar,0,MR,1547424265,21,20.52,-13.05,61.12,7.9
522,pontianak,40,ID,1547422200,100,-0.02,109.34,73.4,4.43
523,sao sebastiao,20,BR,1547424265,88,-3.15,-58.36,77.73,4.65
524,sosnovo-ozerskoye,0,RU,1547424265,47,52.53,111.54,-18.13,10.47
525,maxixe,12,MZ,1547424016,100,-23.86,35.35,79.57,7.0
526,bayan,0,MN,1547424266,50,47.25,107.54,-20.24,8.57
527,teknaf,8,BD,1547424266,97,20.86,92.31,53.65,2.98
528,ust-nera,24,RU,1547423986,0,64.57,143.24,-51.74,0.85
529,beisfjord,64,NO,1547421600,91,68.38,17.6,3.2,9.17
530,along,0,IN,1547424267,52,28.17,94.8,46.18,2.42
531,taiping,75,MY,1547420400,94,4.85,100.74,73.4,4.7
532,hachinohe,0,JP,1547424268,72,40.47,141.48,23.05,3.53
533,dolores,12,AR,1547424268,79,-36.31,-57.68,70.98,9.01
534,umm lajj,68,SA,1547424268,100,25.02,37.27,63.55,11.81
535,gazojak,56,TM,1547423992,89,41.19,61.4,36.1,11.25
